{"type": "FeatureCollection", "features": [{"type": "Feature", "geometry": {"type": "Point", "coordinates": [-58.511251, -34.573336]}, "properties": {"evento": "Atasco tr\u00e1fico pesado", "street": "Av. Gral. Paz", "nearest_intersection": "Intersecci\u00f3n desconocida"}}, {"type": "Feature", "geometry": {"type": "Point", "coordinates": [-58.436625, -34.654765]}, "properties": {"evento": "Peligro en calle", "street": "Av. Gral. Francisco Fern\u00e1ndez de la Cruz", "nearest_intersection": "Intersecci\u00f3n desconocida"}}, {"type": "Feature", "geometry": {"type": "Point", "coordinates": [-58.482174, -34.643183]}, "properties": {"evento": "Baches en el camino", "street": "Av. Directorio", "nearest_intersection": "Intersecci\u00f3n desconocida"}}, {"type": "Feature", "geometry": {"type": "Point", "coordinates": [-58.410693, -34.594582]}, "properties": {"evento": "Veh\u00edculo detenido", "street": "Gallo", "nearest_intersection": "Intersecci\u00f3n desconocida"}}, {"type": "Feature", "geometry": {"type": "Point", "coordinates": [-58.400675, -34.644855]}, "properties": {"evento": "Obras en la calzada", "street": "Av. Amancio Alcorta", "nearest_intersection": "Intersecci\u00f3n desconocida"}}, {"type": "Feature", "geometry": {"type": "Point", "coordinates": [-58.468607, -34.665048]}, "properties": {"evento": "Obras en la calzada", "street": "Av. Escalada", "nearest_intersection": "Intersecci\u00f3n desconocida"}}, {"type": "Feature", "geometry": {"type": "Point", "coordinates": [-58.434054, -34.61416]}, "properties": {"evento": "Accidente grave", "street": "Campichuelo", "nearest_intersection": "Intersecci\u00f3n desconocida"}}, {"type": "Feature", "geometry": {"type": "Point", "coordinates": [-58.433405, -34.618914]}, "properties": {"evento": "", "street": "Viel", "nearest_intersection": "Intersecci\u00f3n desconocida"}}, {"type": "Feature", "geometry": {"type": "Point", "coordinates": [-58.419643, -34.594139]}, "properties": {"evento": "Baches en el camino", "street": "Av. Honduras", "nearest_intersection": "Intersecci\u00f3n desconocida"}}, {"type": "Feature", "geometry": {"type": "Point", "coordinates": [-58.389587, -34.643943]}, "properties": {"evento": "Baches en el camino", "street": "Av. V\u00e9lez Sarsfield", "nearest_intersection": "Intersecci\u00f3n desconocida"}}, {"type": "Feature", "geometry": {"type": "Point", "coordinates": [-58.441932, -34.580402]}, "properties": {"evento": "Obras en la calzada", "street": "Dorrego", "nearest_intersection": "Intersecci\u00f3n desconocida"}}, {"type": "Feature", "geometry": {"type": "Point", "coordinates": [-58.407228, -34.602496]}, "properties": {"evento": "Atasco tr\u00e1fico denso", "street": "Ecuador", "nearest_intersection": "Intersecci\u00f3n desconocida"}}, {"type": "Feature", "geometry": {"type": "Point", "coordinates": [-58.393046, -34.608059]}, "properties": {"evento": "Objeto en el camino", "street": "Bartolom\u00e9 Mitre", "nearest_intersection": "Intersecci\u00f3n desconocida"}}, {"type": "Feature", "geometry": {"type": "Point", "coordinates": [-58.385055, -34.585887]}, "properties": {"evento": "Via cerrada", "street": "Brig. Gral. Juan Facundo Quiroga", "nearest_intersection": "Intersecci\u00f3n desconocida"}}, {"type": "Feature", "geometry": {"type": "Point", "coordinates": [-58.465042, -34.702356]}, "properties": {"evento": "Atasco tr\u00e1fico denso", "street": "Av. Gral. Paz", "nearest_intersection": "Intersecci\u00f3n desconocida"}}, {"type": "Feature", "geometry": {"type": "Point", "coordinates": [-58.419963, -34.596505]}, "properties": {"evento": "Via cerrada", "street": "Jos\u00e9 Antonio Cabrera", "nearest_intersection": "Intersecci\u00f3n desconocida"}}, {"type": "Feature", "geometry": {"type": "Point", "coordinates": [-58.398868, -34.613129]}, "properties": {"evento": "", "street": "Moreno", "nearest_intersection": "Intersecci\u00f3n desconocida"}}, {"type": "Feature", "geometry": {"type": "Point", "coordinates": [-58.421256, -34.570974]}, "properties": {"evento": "Via cerrada", "street": "Calle desconocida", "nearest_intersection": "Intersecci\u00f3n desconocida"}}, {"type": "Feature", "geometry": {"type": "Point", "coordinates": [-58.433125, -34.577977]}, "properties": {"evento": "Veh\u00edculo detenido", "street": "\u00c1ngel Justiniano Carranza", "nearest_intersection": "Intersecci\u00f3n desconocida"}}, {"type": "Feature", "geometry": {"type": "Point", "coordinates": [-58.377822, -34.622747]}, "properties": {"evento": "Veh\u00edculo detenido", "street": "Calle desconocida", "nearest_intersection": "Intersecci\u00f3n desconocida"}}, {"type": "Feature", "geometry": {"type": "Point", "coordinates": [-58.411446, -34.626775]}, "properties": {"evento": "Obras en la calzada", "street": "Autopista 25 de Mayo", "nearest_intersection": "Intersecci\u00f3n desconocida"}}, {"type": "Feature", "geometry": {"type": "Point", "coordinates": [-58.493828, -34.635674]}, "properties": {"evento": "Via cerrada", "street": "Yerbal", "nearest_intersection": "Intersecci\u00f3n desconocida"}}, {"type": "Feature", "geometry": {"type": "Point", "coordinates": [-58.41217, -34.592875]}, "properties": {"evento": "Baches en el camino", "street": "Billinghurst", "nearest_intersection": "Intersecci\u00f3n desconocida"}}, {"type": "Feature", "geometry": {"type": "Point", "coordinates": [-58.49979, -34.549942]}, "properties": {"evento": "Atasco tr\u00e1fico denso", "street": "Av. Gral. Paz", "nearest_intersection": "Intersecci\u00f3n desconocida"}}, {"type": "Feature", "geometry": {"type": "Point", "coordinates": [-58.418787, -34.590467]}, "properties": {"evento": "Objeto en el camino", "street": "Medrano", "nearest_intersection": "Intersecci\u00f3n desconocida"}}, {"type": "Feature", "geometry": {"type": "Point", "coordinates": [-58.429592, -34.599216]}, "properties": {"evento": "Via cerrada", "street": "Lambar\u00e9", "nearest_intersection": "Intersecci\u00f3n desconocida"}}, {"type": "Feature", "geometry": {"type": "Point", "coordinates": [-58.433992, -34.614292]}, "properties": {"evento": "", "street": "Campichuelo", "nearest_intersection": "Intersecci\u00f3n desconocida"}}, {"type": "Feature", "geometry": {"type": "Point", "coordinates": [-58.487933, -34.618041]}, "properties": {"evento": "", "street": "Alejandro Magari\u00f1os Cervantes", "nearest_intersection": "Intersecci\u00f3n desconocida"}}, {"type": "Feature", "geometry": {"type": "Point", "coordinates": [-58.417758, -34.563543]}, "properties": {"evento": "Baches en el camino", "street": "Av. Dorrego", "nearest_intersection": "Intersecci\u00f3n desconocida"}}, {"type": "Feature", "geometry": {"type": "Point", "coordinates": [-58.452365, -34.635642]}, "properties": {"evento": "", "street": "Av. Carabobo", "nearest_intersection": "Intersecci\u00f3n desconocida"}}, {"type": "Feature", "geometry": {"type": "Point", "coordinates": [-58.38231, -34.625811]}, "properties": {"evento": "Baches en el camino", "street": "Lima Oeste", "nearest_intersection": "Intersecci\u00f3n desconocida"}}, {"type": "Feature", "geometry": {"type": "Point", "coordinates": [-58.529934, -34.64725]}, "properties": {"evento": "Baches en el camino", "street": "Pampa", "nearest_intersection": "Intersecci\u00f3n desconocida"}}, {"type": "Feature", "geometry": {"type": "Point", "coordinates": [-58.470389, -34.658799]}, "properties": {"evento": "Via cerrada", "street": "Mozart", "nearest_intersection": "Intersecci\u00f3n desconocida"}}, {"type": "Feature", "geometry": {"type": "Point", "coordinates": [-58.389211, -34.648623]}, "properties": {"evento": "Baches en el camino", "street": "Av. V\u00e9lez Sarsfield", "nearest_intersection": "Intersecci\u00f3n desconocida"}}, {"type": "Feature", "geometry": {"type": "Point", "coordinates": [-58.395034, -34.618332]}, "properties": {"evento": "Atasco tr\u00e1fico denso", "street": "Av. Independencia", "nearest_intersection": "Intersecci\u00f3n desconocida"}}, {"type": "Feature", "geometry": {"type": "Point", "coordinates": [-58.508901, -34.606752]}, "properties": {"evento": "Via cerrada", "street": "Gualeguaych\u00fa", "nearest_intersection": "Intersecci\u00f3n desconocida"}}, {"type": "Feature", "geometry": {"type": "Point", "coordinates": [-58.401908, -34.608621]}, "properties": {"evento": "", "street": "Larrea", "nearest_intersection": "Intersecci\u00f3n desconocida"}}, {"type": "Feature", "geometry": {"type": "Point", "coordinates": [-58.469826, -34.657395]}, "properties": {"evento": "Via cerrada", "street": "Calle desconocida", "nearest_intersection": "Intersecci\u00f3n desconocida"}}, {"type": "Feature", "geometry": {"type": "Point", "coordinates": [-58.381011, -34.642127]}, "properties": {"evento": "Via cerrada", "street": "Dr. Ram\u00f3n Carrillo", "nearest_intersection": "Intersecci\u00f3n desconocida"}}, {"type": "Feature", "geometry": {"type": "Point", "coordinates": [-58.433136, -34.616112]}, "properties": {"evento": "Atasco tr\u00e1fico denso", "street": "Campichuelo", "nearest_intersection": "Intersecci\u00f3n desconocida"}}, {"type": "Feature", "geometry": {"type": "Point", "coordinates": [-58.43949, -34.62305]}, "properties": {"evento": "Baches en el camino", "street": "Av. Juan Bautista Alberdi", "nearest_intersection": "Intersecci\u00f3n desconocida"}}, {"type": "Feature", "geometry": {"type": "Point", "coordinates": [-58.421161, -34.570769]}, "properties": {"evento": "Via cerrada", "street": "Calle desconocida", "nearest_intersection": "Intersecci\u00f3n desconocida"}}, {"type": "Feature", "geometry": {"type": "Point", "coordinates": [-58.453529, -34.603718]}, "properties": {"evento": "Via cerrada", "street": "Dr. Luis Bel\u00e1ustegui", "nearest_intersection": "Intersecci\u00f3n desconocida"}}, {"type": "Feature", "geometry": {"type": "Point", "coordinates": [-58.455723, -34.57095]}, "properties": {"evento": "Atasco tr\u00e1fico pesado", "street": "Conesa", "nearest_intersection": "Intersecci\u00f3n desconocida"}}, {"type": "Feature", "geometry": {"type": "Point", "coordinates": [-58.429731, -34.599788]}, "properties": {"evento": "Via cerrada", "street": "Lambar\u00e9", "nearest_intersection": "Intersecci\u00f3n desconocida"}}, {"type": "Feature", "geometry": {"type": "Point", "coordinates": [-58.470882, -34.65943]}, "properties": {"evento": "Via cerrada", "street": "Mozart", "nearest_intersection": "Intersecci\u00f3n desconocida"}}, {"type": "Feature", "geometry": {"type": "Point", "coordinates": [-58.456162, -34.627864]}, "properties": {"evento": "", "street": "Av. Carabobo", "nearest_intersection": "Intersecci\u00f3n desconocida"}}, {"type": "Feature", "geometry": {"type": "Point", "coordinates": [-58.469682, -34.657766]}, "properties": {"evento": "Via cerrada", "street": "Calle desconocida", "nearest_intersection": "Intersecci\u00f3n desconocida"}}, {"type": "Feature", "geometry": {"type": "Point", "coordinates": [-58.495282, -34.635951]}, "properties": {"evento": "Via cerrada", "street": "Yerbal", "nearest_intersection": "Intersecci\u00f3n desconocida"}}, {"type": "Feature", "geometry": {"type": "Point", "coordinates": [-58.456569, -34.62012]}, "properties": {"evento": "Atasco tr\u00e1fico pesado", "street": "Tte. Gral. Donato \u00c1lvarez", "nearest_intersection": "Intersecci\u00f3n desconocida"}}, {"type": "Feature", "geometry": {"type": "Point", "coordinates": [-58.467126, -34.652411]}, "properties": {"evento": "Veh\u00edculo detenido", "street": "Tte. Gral. Luis Dellepiane", "nearest_intersection": "Intersecci\u00f3n desconocida"}}, {"type": "Feature", "geometry": {"type": "Point", "coordinates": [-58.37833, -34.657038]}, "properties": {"evento": "Via cerrada", "street": "Calle desconocida", "nearest_intersection": "Intersecci\u00f3n desconocida"}}, {"type": "Feature", "geometry": {"type": "Point", "coordinates": [-58.429731, -34.599788]}, "properties": {"evento": "Via cerrada", "street": "Guardia Vieja", "nearest_intersection": "Intersecci\u00f3n desconocida"}}, {"type": "Feature", "geometry": {"type": "Point", "coordinates": [-58.378596, -34.592851]}, "properties": {"evento": "Via cerrada", "street": "Juncal", "nearest_intersection": "Intersecci\u00f3n desconocida"}}, {"type": "Feature", "geometry": {"type": "Point", "coordinates": [-58.381988, -34.600503]}, "properties": {"evento": "Veh\u00edculo detenido", "street": "Av. 9 de Julio", "nearest_intersection": "Intersecci\u00f3n desconocida"}}, {"type": "Feature", "geometry": {"type": "Point", "coordinates": [-58.48791, -34.543904]}, "properties": {"evento": "Veh\u00edculo detenido", "street": "Acceso Norte por autopista", "nearest_intersection": "Intersecci\u00f3n desconocida"}}, {"type": "Feature", "geometry": {"type": "Point", "coordinates": [-58.428169, -34.599945]}, "properties": {"evento": "Via cerrada", "street": "Guardia Vieja", "nearest_intersection": "Intersecci\u00f3n desconocida"}}, {"type": "Feature", "geometry": {"type": "Point", "coordinates": [-58.381218, -34.657144]}, "properties": {"evento": "Via cerrada", "street": "Calle desconocida", "nearest_intersection": "Intersecci\u00f3n desconocida"}}, {"type": "Feature", "geometry": {"type": "Point", "coordinates": [-58.482922, -34.597833]}, "properties": {"evento": "Falla de sem\u00e1foro", "street": "Av. San Mart\u00edn", "nearest_intersection": "Intersecci\u00f3n desconocida"}}, {"type": "Feature", "geometry": {"type": "Point", "coordinates": [-58.457928, -34.569813]}, "properties": {"evento": "Via cerrada", "street": "Av. de los Incas", "nearest_intersection": "Intersecci\u00f3n desconocida"}}, {"type": "Feature", "geometry": {"type": "Point", "coordinates": [-58.395297, -34.577501]}, "properties": {"evento": "Veh\u00edculo detenido", "street": "Padre Carlos Mugica", "nearest_intersection": "Intersecci\u00f3n desconocida"}}, {"type": "Feature", "geometry": {"type": "Point", "coordinates": [-58.530729, -34.618112]}, "properties": {"evento": "Atasco tr\u00e1fico pesado", "street": "Av. Gral. Paz", "nearest_intersection": "Intersecci\u00f3n desconocida"}}, {"type": "Feature", "geometry": {"type": "Point", "coordinates": [-58.496159, -34.636059]}, "properties": {"evento": "Via cerrada", "street": "Yerbal", "nearest_intersection": "Intersecci\u00f3n desconocida"}}, {"type": "Feature", "geometry": {"type": "Point", "coordinates": [-58.377356, -34.617524]}, "properties": {"evento": "Objeto en el camino", "street": "Piedras", "nearest_intersection": "Intersecci\u00f3n desconocida"}}, {"type": "Feature", "geometry": {"type": "Point", "coordinates": [-58.467935, -34.653509]}, "properties": {"evento": "Atasco tr\u00e1fico denso", "street": "Av. Lacarra / Perito Moreno", "nearest_intersection": "Intersecci\u00f3n desconocida"}}, {"type": "Feature", "geometry": {"type": "Point", "coordinates": [-58.465919, -34.652034]}, "properties": {"evento": "", "street": "Autopista 6 Perito Moreno", "nearest_intersection": "Intersecci\u00f3n desconocida"}}, {"type": "Feature", "geometry": {"type": "Point", "coordinates": [-58.379788, -34.622832]}, "properties": {"evento": "Veh\u00edculo detenido", "street": "Autopista 25 de Mayo", "nearest_intersection": "Intersecci\u00f3n desconocida"}}, {"type": "Feature", "geometry": {"type": "Point", "coordinates": [-58.457988, -34.570361]}, "properties": {"evento": "Via cerrada", "street": "Calle desconocida", "nearest_intersection": "Intersecci\u00f3n desconocida"}}, {"type": "Feature", "geometry": {"type": "Point", "coordinates": [-58.456026, -34.568899]}, "properties": {"evento": "Atasco tr\u00e1fico pesado", "street": "Vidal", "nearest_intersection": "Intersecci\u00f3n desconocida"}}, {"type": "Feature", "geometry": {"type": "Point", "coordinates": [-58.477097, -34.548349]}, "properties": {"evento": "", "street": "Zapiola", "nearest_intersection": "Intersecci\u00f3n desconocida"}}, {"type": "Feature", "geometry": {"type": "Point", "coordinates": [-58.416389, -34.601727]}, "properties": {"evento": "Atasco tr\u00e1fico denso", "street": "Mario Bravo", "nearest_intersection": "Intersecci\u00f3n desconocida"}}, {"type": "Feature", "geometry": {"type": "Point", "coordinates": [-58.368088, -34.642844]}, "properties": {"evento": "Baches en el camino", "street": "Benito Quinquela Mart\u00edn", "nearest_intersection": "Intersecci\u00f3n desconocida"}}, {"type": "Feature", "geometry": {"type": "Point", "coordinates": [-58.368294, -34.602262]}, "properties": {"evento": "Atasco tr\u00e1fico pesado", "street": "Av. Eduardo Madero", "nearest_intersection": "Intersecci\u00f3n desconocida"}}, {"type": "Feature", "geometry": {"type": "Point", "coordinates": [-58.416575, -34.653267]}, "properties": {"evento": "Atasco tr\u00e1fico denso", "street": "Av. S\u00e1enz", "nearest_intersection": "Intersecci\u00f3n desconocida"}}, {"type": "Feature", "geometry": {"type": "Point", "coordinates": [-58.529025, -34.617023]}, "properties": {"evento": "Obras en la calzada", "street": "Av. Francisco Beir\u00f3", "nearest_intersection": "Intersecci\u00f3n desconocida"}}, {"type": "Feature", "geometry": {"type": "Point", "coordinates": [-58.529836, -34.637223]}, "properties": {"evento": "Atasco tr\u00e1fico pesado", "street": "Av. Gral. Paz", "nearest_intersection": "Intersecci\u00f3n desconocida"}}]}